[{"name":"Alfred Nakache","lat":48.871498,"lng":2.378612,"id":4012,"address":"4-12, rue Dénoyez","zipcode":"75020","url":"http://equipement.paris.fr/piscine-alfred-nakache-4012"},{"name":"Armand Massard","lat":48.844036,"lng":2.323341,"id":2933,"address":"66 boulevard du Montparnasse","zipcode":"75015","url":"http://equipement.paris.fr/piscine-armand-massard-2933"},{"name":"Aspirant Dunand","lat":48.831699,"lng":2.326708,"id":2931,"address":"20, rue Saillard","zipcode":"75014","url":"http://equipement.paris.fr/piscine-aspirant-dunand-2931"},{"name":"Bernard Lafay","lat":48.894707,"lng":2.318883,"id":2940,"address":"79, rue de la Jonquière","zipcode":"75017","url":"http://equipement.paris.fr/piscine-bernard-lafay-2940"},{"name":"Bertrand Dauvin","lat":48.899296,"lng":2.342513,"id":2942,"address":"12, rue René Binet","zipcode":"75018","url":"http://equipement.paris.fr/piscine-bertrand-dauvin-2942"},{"name":"Blomet","lat":48.843323,"lng":2.307422,"id":2934,"address":"17, rue Blomet","zipcode":"75015","url":"http://equipement.paris.fr/piscine-blomet-2934"},{"name":"Catherine Lagatu ex Parmentier","lat":48.871693,"lng":2.369786,"id":5041,"address":"155 avenue Parmentier","zipcode":"75010","url":"http://equipement.paris.fr/piscine-catherine-lagatu-ex-parmentier-5041"},{"name":"Champerret","lat":48.888275,"lng":2.295667,"id":2941,"address":"36, boulevard de Reims","zipcode":"75017","url":"http://equipement.paris.fr/piscine-champerret-2941"},{"name":"Château des Rentiers","lat":48.830406,"lng":2.3619,"id":2928,"address":"184, rue du Château des Rentiers","zipcode":"75013","url":"http://equipement.paris.fr/piscine-chateau-des-rentiers-2928"},{"name":"Château-Landon","lat":48.883221,"lng":2.363909,"id":2923,"address":"31, rue du château-Landon","zipcode":"75010","url":"http://equipement.paris.fr/piscine-chateau-landon-2923"},{"name":"d'Auteuil","lat":48.857183316995,"lng":2.2605770232788,"id":3324,"address":"Route des Lacs à Passy","zipcode":"75016","url":"http://equipement.paris.fr/piscine-d-auteuil-3324"},{"name":"de la Butte aux Cailles","lat":48.827431,"lng":2.352194,"id":2927,"address":"5, place Paul Verlaine","zipcode":"75013","url":"http://equipement.paris.fr/piscine-de-la-butte-aux-cailles-2927"},{"name":"de la Cour des Lions","lat":48.860626,"lng":2.370507,"id":2925,"address":"9, rue Alphonse Baudin","zipcode":"75011","url":"http://equipement.paris.fr/piscine-de-la-cour-des-lions-2925"},{"name":"des Amiraux","lat":48.894421,"lng":2.350622,"id":2944,"address":"6, rue Hermann Lachapelle","zipcode":"75018","url":"http://equipement.paris.fr/piscine-des-amiraux-2944"},{"name":"Didot","lat":48.824276,"lng":2.309616,"id":2932,"address":"22, avenue Georges Lafenestre","zipcode":"75014","url":"http://equipement.paris.fr/piscine-didot-2932"},{"name":"Dunois","lat":48.832973,"lng":2.366437,"id":2929,"address":"70, rue Dunois","zipcode":"75013","url":"http://equipement.paris.fr/piscine-dunois-2929"},{"name":"Edouard Pailleron","lat":48.880829,"lng":2.377323,"id":2945,"address":"32, rue Edouard Pailleron","zipcode":"75019","url":"http://equipement.paris.fr/piscine-edouard-pailleron-2945"},{"name":"Emile Anthoine","lat":48.855381,"lng":2.290917,"id":2935,"address":"9, rue Jean Rey","zipcode":"75015","url":"http://equipement.paris.fr/piscine-emile-anthoine-2935"},{"name":"Georges Drigny","lat":48.881893,"lng":2.342184,"id":2920,"address":"18, rue Bochart de Saron","zipcode":"75009","url":"http://equipement.paris.fr/piscine-georges-drigny-2920"},{"name":"Georges Hermant","lat":48.8829081,"lng":2.3889730999999,"id":2948,"address":"6, rue David d\\'Angers","zipcode":"75019","url":"http://equipement.paris.fr/piscine-georges-hermant-2948"},{"name":"Georges Rigal","lat":48.856609,"lng":2.394056,"id":2924,"address":"115, boulevard de Charonne","zipcode":"75011","url":"http://equipement.paris.fr/piscine-georges-rigal-2924"},{"name":"Georges Vallerey","lat":48.875381,"lng":2.405829,"id":2949,"address":"148, avenue Gambetta","zipcode":"75020","url":"http://equipement.paris.fr/piscine-georges-vallerey-2949"},{"name":"Hébert","lat":48.893993,"lng":2.363163,"id":2943,"address":"2, rue des Fillettes","zipcode":"75018","url":"http://equipement.paris.fr/piscine-hebert-2943"},{"name":"Henry de Montherlant","lat":48.867092,"lng":2.271985,"id":2939,"address":"30, boulevard Lannes","zipcode":"75016","url":"http://equipement.paris.fr/piscine-henry-de-montherlant-2939"},{"name":"Jean Taris","lat":48.84462,"lng":2.347786,"id":3325,"address":"16, rue Thouin","zipcode":"75005","url":"http://equipement.paris.fr/piscine-jean-taris-3325"},{"name":"Joséphine-Baker","lat":48.8341088,"lng":2.3773645,"id":2930,"address":"quai François Mauriac","zipcode":"75013","url":"http://equipement.paris.fr/piscine-josephine-baker-2930"},{"name":"Keller","lat":48.8477033,"lng":2.2827249,"id":2936,"address":"14, rue de l\\'Ingénieur Robert-Keller","zipcode":"75015","url":"http://equipement.paris.fr/piscine-keller-2936"},{"name":"La Plaine","lat":48.827991,"lng":2.292976,"id":2937,"address":"13, rue du Général Guillaumat","zipcode":"75015","url":"http://equipement.paris.fr/piscine-la-plaine-2937"},{"name":"Mathis","lat":48.890816,"lng":2.375107,"id":2946,"address":"15, rue Mathis","zipcode":"75019","url":"http://equipement.paris.fr/piscine-mathis-2946"},{"name":"Paul Valeyre","lat":48.8781484,"lng":2.3449489,"id":2921,"address":"24, rue de Rochechouart","zipcode":"75009","url":"http://equipement.paris.fr/piscine-paul-valeyre-2921"},{"name":"Pontoise","lat":48.849236,"lng":2.3515816,"id":2918,"address":"19, rue de Pontoise","zipcode":"75005","url":"http://equipement.paris.fr/piscine-pontoise-2918"},{"name":"René et André Mourlon","lat":48.848824,"lng":2.284898,"id":2938,"address":"19, rue Gaston de Caillavet","zipcode":"75015","url":"http://equipement.paris.fr/piscine-rene-et-andre-mourlon-2938"},{"name":"Reuilly","lat":48.841927,"lng":2.389423,"id":2926,"address":"13, rue Hénard","zipcode":"75012","url":"http://equipement.paris.fr/piscine-reuilly-2926"},{"name":"Roger Le Gall","lat":48.842007,"lng":2.413147,"id":2950,"address":"34, boulevard Carnot","zipcode":"75012","url":"http://equipement.paris.fr/piscine-roger-le-gall-2950"},{"name":"Rouvet","lat":48.893188,"lng":2.385029,"id":2947,"address":"1, rue Rouvet","zipcode":"75019","url":"http://equipement.paris.fr/piscine-rouvet-2947"},{"name":"Saint-Germain","lat":48.851669,"lng":2.335931,"id":2919,"address":"12, rue Lobineau","zipcode":"75006","url":"http://equipement.paris.fr/piscine-saint-germain-2919"},{"name":"Saint-Merri","lat":48.859406,"lng":2.352479,"id":2,"address":"16 rue du renard","zipcode":"75004","url":"http://equipement.paris.fr/piscine-saint-merri-2"},{"name":"Suzanne Berlioux (Les Halles)","lat":48.8623474,"lng":2.3458559000001,"id":2916,"address":"forum des Halles","zipcode":"75001","url":"http://equipement.paris.fr/piscine-suzanne-berlioux-les-halles-2916"}]